{
"type": "FeatureCollection",
"crs": { "type": "name", "properties": { "name": "urn:ogc:def:crs:OGC:1.3:CRS84" } },
                                                                                
"features": [
{ "type": "Feature", "properties": { "ROUND": "1", "APP_NUM": "10", "NAME": "Hoonah Heat Recovery Project", "APPLICANT": null, "LOCATION": "Hoonah", "LON": -135.72999999999999, "LAT": 58.399999999999999, "TYPE": "Heat Recovery", "PROJECT_CO": 10153000, "GRANT_AMOU": 750000, "MATCH": "-", "PM": "DL", "NOTE": null, "LABEL": null }, "geometry": { "type": "Point", "coordinates": [ -135.44541475485201, 58.109659534967221 ] } },
{ "type": "Feature", "properties": { "ROUND": "1", "APP_NUM": "9", "NAME": "Wrangell Hydro Based Electric Boilers Construction", "APPLICANT": "City and Borough of Wrangell", "LOCATION": "Wrangell", "LON": -132.37, "LAT": 56.469999999999999, "TYPE": "Heat Recovery", "PROJECT_CO": 3260000, "GRANT_AMOU": 3260000, "MATCH": "123,000", "PM": "DP", "NOTE": null, "LABEL": "Wrangell Excess Hydro to Heat" }, "geometry": { "type": "Point", "coordinates": [ -132.369999999204282, 56.470000000189479 ] } },
{ "type": "Feature", "properties": { "ROUND": "1", "APP_NUM": "22", "NAME": "Cordova Heat Recovery Construction", "APPLICANT": "Cordova Electric Cooperative", "LOCATION": "Cordova", "LON": -145.75, "LAT": 60.549999999999997, "TYPE": "Heat Recovery", "PROJECT_CO": 5260000, "GRANT_AMOU": 1780000, "MATCH": "3,480,000", "PM": "DP", "NOTE": null, "LABEL": "Cordova Heat Recovery" }, "geometry": { "type": "Point", "coordinates": [ -145.750000000803965, 60.549999999994817 ] } },
{ "type": "Feature", "properties": { "ROUND": "1", "APP_NUM": "61", "NAME": "McGrath Heat Recovery Construction", "APPLICANT": "McGrath Light & Power, Co.", "LOCATION": "McGrath", "LON": -155.58000000000001, "LAT": 62.950000000000003, "TYPE": "Heat Recovery", "PROJECT_CO": 991815, "GRANT_AMOU": 824815, "MATCH": "167,000", "PM": "DP", "NOTE": null, "LABEL": "McGrath Heat Recovery" }, "geometry": { "type": "Point", "coordinates": [ -155.580000000361139, 62.949999999789533 ] } },
{ "type": "Feature", "properties": { "ROUND": "1", "APP_NUM": "105", "NAME": "North Pole Heat Recovery Construction", "APPLICANT": "Golden Valley Electric Association", "LOCATION": "North Pole", "LON": -147.34999999999999, "LAT": 64.75, "TYPE": "Heat Recovery", "PROJECT_CO": 1050000, "GRANT_AMOU": 840000, "MATCH": "210,000", "PM": "DP", "NOTE": null, "LABEL": "North Pole Heat Recovery" }, "geometry": { "type": "Point", "coordinates": [ -147.349999999889604, 64.750000000339767 ] } },
{ "type": "Feature", "properties": { "ROUND": "2", "APP_NUM": "235", "NAME": "Kotzebue HR and Ammonia Power Cycle", "APPLICANT": "Kotzebue Electric Association", "LOCATION": "Kotzebue", "LON": -162.58000000000001, "LAT": 66.900000000000006, "TYPE": "Heat Recovery", "PROJECT_CO": 915627, "GRANT_AMOU": 1215627, "MATCH": "300,000", "PM": "DP", "NOTE": null, "LABEL": "Kotzebue Heat Recovery" }, "geometry": { "type": "Point", "coordinates": [ -162.579999999548164, 66.900000000213495 ] } },
{ "type": "Feature", "properties": { "ROUND": "2", "APP_NUM": "271", "NAME": "Unalaska Heat Recovery", "APPLICANT": "City of Unalaska, Department of Public Utilities", "LOCATION": "Unalaska", "LON": -166.93111099999999, "LAT": 53.886389000000001, "TYPE": "Heat Recovery", "PROJECT_CO": 1300000, "GRANT_AMOU": 2011412, "MATCH": "619,807", "PM": "DP", "NOTE": null, "LABEL": "Unalaska Heat Recovery" }, "geometry": { "type": "Point", "coordinates": [ -166.931110999390825, 53.886388999806755 ] } },
{ "type": "Feature", "properties": { "ROUND": "2", "APP_NUM": "307", "NAME": "Ambler HR_City of Ambler", "APPLICANT": "City of Ambler", "LOCATION": "Ambler", "LON": -157.87, "LAT": 67.079999999999998, "TYPE": "Heat Recovery", "PROJECT_CO": 435000, "GRANT_AMOU": 500000, "MATCH": "65,000", "PM": "DP", "NOTE": null, "LABEL": "Ambler Heat Recovery" }, "geometry": { "type": "Point", "coordinates": [ -157.869999998925636, 67.080000000110317 ] } },
{ "type": "Feature", "properties": { "ROUND": "3", "APP_NUM": "448", "NAME": "St. Paul Fuel Economy Upgrade", "APPLICANT": "City of St. Paul Electric Utility", "LOCATION": "St. Paul", "LON": -170.27000000000001, "LAT": 57.119999999999997, "TYPE": "Heat Recovery", "PROJECT_CO": 104650, "GRANT_AMOU": 98149, "MATCH": "510,941", "PM": "JJ", "NOTE": null, "LABEL": "St Paul Heat Recovery" }, "geometry": { "type": "Point", "coordinates": [ -170.27000000029895, 57.120000000241447 ] } },
{ "type": "Feature", "properties": { "ROUND": "3", "APP_NUM": "519", "NAME": "Atka Hydro Dispatched Excess Electrical Power", "APPLICANT": "City of Atka", "LOCATION": "Atka", "LON": -174.19999999999999, "LAT": 52.189999999999998, "TYPE": "Heat Recovery", "PROJECT_CO": 52500, "GRANT_AMOU": 80000, "MATCH": "297,500", "PM": "AA", "NOTE": null, "LABEL": "Atka Excess Hydro to Heat" }, "geometry": { "type": "Point", "coordinates": [ -174.199999999573521, 52.190000000536372 ] } },
{ "type": "Feature", "properties": { "ROUND": null, "APP_NUM": null, "NAME": "Pt. Lay Heat Recovery", "APPLICANT": null, "LOCATION": null, "LON": -163.012, "LAT": 69.735899999599994, "TYPE": "Heat Recovery", "PROJECT_CO": 0, "GRANT_AMOU": 0, "MATCH": null, "PM": null, "NOTE": null, "LABEL": null }, "geometry": { "type": "Point", "coordinates": [ -163.011999999663857, 69.735899999648836 ] } }
]
}
