{
"type": "FeatureCollection",
"crs": { "type": "name", "properties": { "name": "urn:ogc:def:crs:OGC:1.3:CRS84" } },
                                                                                
"features": [
{ "type": "Feature", "properties": { "ROUND": "1", "APP_NUM": "10", "NAME": "Falls Creek Hydroelectric Construction", "APPLICANT": "Gustavus Electric Company", "LOCATION": "Gustavus", "LON": -135.72999999999999, "LAT": 58.399999999999999, "TYPE": "Hydro", "PROJECT_CO": 10153000, "GRANT_AMOU": 750000, "MATCH": "-", "PM": "DL", "NOTE": null, "LABEL": "Falls Creek Hydroelectric" }, "geometry": { "type": "Point", "coordinates": [ -135.73000000068717, 58.399999999978633 ] } },
{ "type": "Feature", "properties": { "ROUND": "1, 3", "APP_NUM": "21, 407", "NAME": "Humpback Creek Hydroelectric Construction", "APPLICANT": "Cordova Electric Cooperative", "LOCATION": "Cordova", "LON": -145.682222, "LAT": 60.612499999999997, "TYPE": "Hydro", "PROJECT_CO": 17031000, "GRANT_AMOU": 8000000, "MATCH": "3,400,238", "PM": "DO", "NOTE": null, "LABEL": "Humpback Creek Hydroelectric" }, "geometry": { "type": "Point", "coordinates": [ -145.682222000186158, 60.612499999658596 ] } },
{ "type": "Feature", "properties": { "ROUND": "1", "APP_NUM": "58", "NAME": "Chuniisax Creek Hydroelectric Construction", "APPLICANT": "City of Atka", "LOCATION": "Atka", "LON": -174.20056, "LAT": 52.196109999999997, "TYPE": "Hydro", "PROJECT_CO": 2914891, "GRANT_AMOU": 996000, "MATCH": "1918891", "PM": "AA", "NOTE": null, "LABEL": "Chuniisax Creek Hydroelectric" }, "geometry": { "type": "Point", "coordinates": [ -174.200560000479186, 52.196109999487433 ] } },
{ "type": "Feature", "properties": { "ROUND": "1", "APP_NUM": "104", "NAME": "Reynolds Creek Hydroelectric Construction", "APPLICANT": "Haida Power, Inc.", "LOCATION": "Hydaburg", "LON": -132.81999999999999, "LAT": 55.200000000000003, "TYPE": "Hydro", "PROJECT_CO": 17145000, "GRANT_AMOU": 13720000, "MATCH": "-", "PM": "JS", "NOTE": null, "LABEL": "Reynolds Creek Hydroelectric" }, "geometry": { "type": "Point", "coordinates": [ -132.819999999509236, 55.200000000206074 ] } },
{ "type": "Feature", "properties": { "ROUND": "3", "APP_NUM": "438", "NAME": "Yerrick Creek Hydro", "APPLICANT": "Alaska Power Company", "LOCATION": "Tok", "LON": -142.98555999999999, "LAT": 63.336669999999998, "TYPE": "Hydro", "PROJECT_CO": 14500000, "GRANT_AMOU": 4000000, "MATCH": "0", "PM": "AA", "NOTE": null, "LABEL": "Yerrick Creek Hydroelectric" }, "geometry": { "type": "Point", "coordinates": [ -142.985560000539436, 63.336669999750839 ] } },
{ "type": "Feature", "properties": { "ROUND": "3", "APP_NUM": "469", "NAME": "Akutan Hydroelectric System Repair & Upgrade", "APPLICANT": "City of Akutan", "LOCATION": "Akutan", "LON": -165.77000000000001, "LAT": 54.130000000000003, "TYPE": "Hydro", "PROJECT_CO": 100000, "GRANT_AMOU": 1391000, "MATCH": "1,391,000", "PM": "AA", "NOTE": null, "LABEL": "Akutan Hydroelectric" }, "geometry": { "type": "Point", "coordinates": [ -165.769999999971446, 54.129999999747902 ] } },
{ "type": "Feature", "properties": { "ROUND": null, "APP_NUM": null, "NAME": "Whitman Lake", "APPLICANT": null, "LOCATION": null, "LON": -131.533000001, "LAT": 55.333194999699998, "TYPE": "Hydro", "PROJECT_CO": 0, "GRANT_AMOU": 0, "MATCH": null, "PM": null, "NOTE": null, "LABEL": null }, "geometry": { "type": "Point", "coordinates": [ -131.53300000075447, 55.333194999709306 ] } },
{ "type": "Feature", "properties": { "ROUND": null, "APP_NUM": null, "NAME": "Pelican Hydroelectric Upgrade", "APPLICANT": null, "LOCATION": null, "LON": -136.227, "LAT": 57.9609999997, "TYPE": "Hydro", "PROJECT_CO": 0, "GRANT_AMOU": 0, "MATCH": null, "PM": null, "NOTE": null, "LABEL": null }, "geometry": { "type": "Point", "coordinates": [ -136.227000000377444, 57.960999999708562 ] } },
{ "type": "Feature", "properties": { "ROUND": null, "APP_NUM": null, "NAME": "Terror Lake Unit 3 Hydroelectric", "APPLICANT": null, "LOCATION": null, "LON": -153.02500000000001, "LAT": 57.652369999999998, "TYPE": "Hydro", "PROJECT_CO": 0, "GRANT_AMOU": 0, "MATCH": null, "PM": null, "NOTE": null, "LABEL": null }, "geometry": { "type": "Point", "coordinates": [ -153.025000000087431, 57.65236999998006 ] } }
]
}
