{
"type": "FeatureCollection",
"crs": { "type": "name", "properties": { "name": "urn:ogc:def:crs:OGC:1.3:CRS84" } },
                                                                                
"features": [
{ "type": "Feature", "properties": { "ID": 10.0, "Latitude": 60.4683, "Longitude": -149.8267, "Common_Pro": "Cooper Lake ", "PtName": "Cooper Lake", "PtNameFr": "EIA2010", "Utility_Ot": "Shared", "DamOwn": "Chugach Electric Assn Inc", "MW": 19.4, "KW": 19400.0 }, "geometry": { "type": "Point", "coordinates": [ -149.826699999211456, 60.468300000260889 ] } },
{ "type": "Feature", "properties": { "ID": 12.0, "Latitude": 61.40528, "Longitude": -149.1425, "Common_Pro": "Eklutna", "PtName": "Eklutna Hydro Project", "PtNameFr": "EIA2010", "Utility_Ot": "Shared", "DamOwn": "Anchorage Municipal Light and Power", "MW": 44.4, "KW": 44400.0 }, "geometry": { "type": "Point", "coordinates": [ -149.142499999862395, 61.405280000216614 ] } },
{ "type": "Feature", "properties": { "ID": 16.0, "Latitude": 56.9833, "Longitude": -135.1333, "Common_Pro": "Green Lake ", "PtName": "Green Lake", "PtNameFr": "EIA2010", "Utility_Ot": "Sitka", "DamOwn": "Sitka City & Borough of", "MW": 18.6, "KW": 18600.0 }, "geometry": { "type": "Point", "coordinates": [ -135.133300000245242, 56.983300000099547 ] } },
{ "type": "Feature", "properties": { "ID": 22.0, "Latitude": 58.246669, "Longitude": -133.982391, "Common_Pro": "Lake Dorothy", "PtName": "Lake Dorothy Hydroelectric Project", "PtNameFr": "EIA2010", "Utility_Ot": "AELP", "DamOwn": "Alaska Electric Light&Power Co", "MW": 14.3, "KW": 14300.0 }, "geometry": { "type": "Point", "coordinates": [ -133.98239100036335, 58.24666899999454 ] } },
{ "type": "Feature", "properties": { "ID": 31.0, "Latitude": 58.16679551, "Longitude": -133.72673204, "Common_Pro": "Snettisham", "PtName": "Snettisham", "PtNameFr": "EIA2010", "Utility_Ot": "AELP", "DamOwn": "Alaska Electric Light&Power Co", "MW": 78.2, "KW": 78200.0 }, "geometry": { "type": "Point", "coordinates": [ -133.726732039831688, 58.166795509633602 ] } },
{ "type": "Feature", "properties": { "ID": 32.0, "Latitude": 61.09, "Longitude": -146.3017, "Common_Pro": "Solomon Gulch ", "PtName": "Solomon Gulch", "PtNameFr": "EIA2010", "Utility_Ot": "CVEA", "DamOwn": "Copper Valley Elec Assn, Inc", "MW": 12.0, "KW": 12000.0 }, "geometry": { "type": "Point", "coordinates": [ -146.301699999474948, 61.089999999699018 ] } },
{ "type": "Feature", "properties": { "ID": 34.0, "Latitude": 55.5319, "Longitude": -131.4053, "Common_Pro": "Swan Lake ", "PtName": "Swan Lake", "PtNameFr": "EIA2010", "Utility_Ot": "SEPA", "DamOwn": "Ketchikan Public Utilities", "MW": 22.4, "KW": 22400.0 }, "geometry": { "type": "Point", "coordinates": [ -131.405299999738105, 55.531900000343079 ] } },
{ "type": "Feature", "properties": { "ID": 37.0, "Latitude": 57.6667, "Longitude": -153.1, "Common_Pro": "Terror Lake ", "PtName": "Terror Lake", "PtNameFr": "EIA2010", "Utility_Ot": "KEA", "DamOwn": "Kodiak Electric Assn Inc", "MW": 20.0, "KW": 20000.0 }, "geometry": { "type": "Point", "coordinates": [ -153.100000000791027, 57.666699999643072 ] } },
{ "type": "Feature", "properties": { "ID": 39.0, "Latitude": 56.2153, "Longitude": -131.5106, "Common_Pro": "Tyee", "PtName": "Tyee Lake", "PtNameFr": "NHAAP", "Utility_Ot": "SEAPA", "DamOwn": "Four Dam Pool Power Agency", "MW": 22.5, "KW": 22500.0 }, "geometry": { "type": "Point", "coordinates": [ -131.510599999457725, 56.215300000212636 ] } }
]
}
